{
    "coffeeshops" : [
        {
            "id": "1",
            "title": "L.Z. Dessert 無框架甜點",
            "city": "台中市西區",
            "address": "台中市西區中興街183號",
            "time": "12:30-20:30",
            "tel": "04-23026865",
            "evaluate": "10",
            "pricelevel": "400起",
            "minimum order": "一杯飲品或一杯義式冰淇淋",
            "longitude": "120.6606413",
            "latitude": "24.150176",
            "link":"https://www.instagram.com/p/CDfkj_4HJrg/?utm_source=ig_web_copy_link",
            "image1": "imgs/1-1.jpg",
            "image2": "1-2.jpg"
        },
        {
            "id": "2",
            "title": "All In Coffee",
            "city": "彰化縣員林市",
            "address": "彰化縣員林市和平東街60-1號",
            "time": "9:00-18:00",
            "tel": "",
            "evaluate": "10",
            "pricelevel": "200起",
            "minimum order": "一杯飲品",
            "longitude": "120.5734127",
            "latitude": "23.962603",
            "link":"https://www.instagram.com/p/CFQ1VLmn9AG/?utm_source=ig_web_copy_link",
            "image1": "2-1.jpg",
            "image2": "2-2.jpg"

        },
        {
            "id": "3",
            "title": "萊姆16手作甜點-Lime 16 Patisserie",
            "city": "台中市北區",
            "address": "台中市北區天津一街42號",
            "time": "13:30-19:00 (週四公休)",
            "tel": "04-22982509",
            "evaluate": "10",
            "pricelevel": "200起",
            "minimum order": "每人150元",
            "longitude": "120.6732834",
            "latitude": "24.1706022",
            "link":"https://www.instagram.com/p/CIAlG7VnI32/?utm_source=ig_web_copy_link",
            "image1": "3-1.jpg"
        },
        {
            "id": "4",
            "title": "Subi coffee&bakery",
            "city": "彰化縣員林市",
            "address": "彰化縣員林市中山路二段131巷28號",
            "time": "12:00-18:30 (週三公休)",
            "tel": "04-8372312",
            "evaluate": "10",
            "pricelevel": "200起",
            "minimum order": "一杯飲品",
            "longitude": "120.5676459",
            "latitude": "23.9637576",
            "link":"https://www.instagram.com/p/CKaYDYXHoYr/?utm_source=ig_web_copy_link",
            "image1": "4-1.jpg"
        },
        {
            "id": "5",
            "title": "窩巷 ᴴᴵᴰᴰᴱᴺ ᴸᴬᴺᴱ",
            "city": "台中市西區",
            "address": "台中市西區柳川東路二段56號",
            "time": "12:30-18:00 (週四公休)",
            "tel": "04-23770008",
            "evaluate": "9",
            "pricelevel": "200起",
            "minimum order": "無提供內用",
            "longitude": "120.6627157",
            "latitude": "24.1335479",
            "link":"https://www.instagram.com/p/CKBQIX5nvJX/?utm_source=ig_web_copy_link",
            "image1": "5-1.jpg"
        },
        {
            "id": "6",
            "title": "Cuppa VV Cafe",
            "city": "台中市西區",
            "address": "台中市西區博館三街103號",
            "time": "9:00-21:00",
            "tel": "04-23237879",
            "evaluate": "9",
            "pricelevel": "200起",
            "minimum order": "一杯飲品",
            "longitude": "120.6598002",
            "latitude": "24.1571368",
            "link":"https://www.instagram.com/p/CEYKt7inB0m/?utm_source=ig_web_copy_link",
            "image1": "6-1.jpg"
        },
        {
            "id": "7",
            "title": "發酵",
            "city": "台中市西區",
            "address": "台中市西區美村路一段102巷1號",
            "time": "11:00-19:00",
            "tel": "04-23280065",
            "evaluate": "8",
            "pricelevel": "200起",
            "minimum order": "一分鹹食主餐",
            "longitude": "120.6591274",
            "latitude": "24.1519459",
            "link":"https://www.instagram.com/p/CFE9FSmnHAT/?utm_source=ig_web_copy_link",
            "image1": "7-1.jpg"
        },
        {
            "id": "8",
            "title": "8豆咖琲",
            "city": "台中市西區",
            "address": "台中市西區五權西六街93號",
            "time": "9:00-18:00",
            "tel": "04-23768393",
            "evaluate": "8",
            "pricelevel": "200起",
            "minimum order": "每人100元",
            "longitude": "120.6567167",
            "latitude": "24.1372235",
            "link":"https://www.instagram.com/p/CYBAAXwvwrI/?utm_source=ig_web_copy_link",
            "image1": "8-1.jpg",
            "image2": "8-2.jpg",
            "image3": "8-3.jpg"
        },
        {
            "id": "9",
            "title": "初咖啡The Origin Coffee Roaster in Shalu",
            "city": "台中市沙鹿區",
            "address": "台中市沙鹿區四平街43-1號",
            "time": "9:00-18:00",
            "tel": "04-23768393",
            "evaluate": "8",
            "pricelevel": "200起",
            "minimum order": "一杯飲品",
            "longitude": "120.5578238",
            "latitude": "24.2337386",
            "link":"https://www.instagram.com/p/CUNC843Pi6_/?utm_source=ig_web_copy_link",
            "image1": "9-1.jpg",
            "image2": "9-2.jpg"
        },
        {
            "id": "10",
            "title": "chewy嚼一半",
            "city": "台中市西區",
            "address": "台中市西區美村路一段52巷10號1樓",
            "time": "12:00-18:00",
            "tel": "09-52699618",
            "evaluate": "8",
            "pricelevel": "100起",
            "minimum order": "一杯飲品",
            "longitude": "120.6590917",
            "latitude": "4.1534242",
            "link":"https://www.instagram.com/p/CatJeSXvttM/?utm_source=ig_web_copy_link",
            "image1": "10-1.jpg",
            "image2": "10-2.jpg",
            "image3": "10-3.jpg"
        }
    ]
}
